{
"type": "FeatureCollection",
"crs": { "type": "name", "properties": { "name": "urn:ogc:def:crs:OGC:1.3:CRS84" } },
"features": [
{ "type": "Feature", "properties": { "no": 1, "name": "臺北車站旅遊服務中心", "address": "臺北市中正區北平西路3號", "telephone": "886-2-23123256", "openingHours": "每日09：00-19：00", "type": "服務中心" }, "geometry": { "type": "Point", "coordinates": [ 121.515707423985646, 25.04752190810375 ] } },
{ "type": "Feature", "properties": { "no": 2, "name": "松山機場旅遊服務中心", "address": "臺北市松山區敦化北路340-10號", "telephone": "886-2-25464741", "openingHours": "每日08：00-17：00", "type": "服務中心" }, "geometry": { "type": "Point", "coordinates": [ 121.550409962213791, 25.063579992886432 ] } },
{ "type": "Feature", "properties": { "no": 3, "name": "機場捷運A1台北車站旅遊服務中心", "address": "臺北市中正區鄭州路8號B1", "telephone": "886-2-23313133", "openingHours": "每日10：00-19：00", "type": "服務中心" }, "geometry": { "type": "Point", "coordinates": [ 121.514857223082601, 25.048901262468519 ] } },
{ "type": "Feature", "properties": { "no": 4, "name": "捷運新北投站旅遊服務中心", "address": "臺北市北投區大業路700號", "telephone": "886-2-28912972", "openingHours": "每日10：00-19：00", "type": "服務中心" }, "geometry": { "type": "Point", "coordinates": [ 121.503459988862005, 25.137009990931034 ] } },
{ "type": "Feature", "properties": { "no": 5, "name": "捷運劍潭站旅遊服務中心", "address": "臺北市士林區中山北路五段65號", "telephone": "886-2-28830313", "openingHours": "每日10：00-19：00", "type": "服務中心" }, "geometry": { "type": "Point", "coordinates": [ 121.525199963490081, 25.082920019087808 ] } },
{ "type": "Feature", "properties": { "no": 6, "name": "捷運西門站旅遊服務中心", "address": "臺北市中正區寶慶路32-1號B1", "telephone": "886-2-23753096", "openingHours": "每日10：00-19：00", "type": "服務中心" }, "geometry": { "type": "Point", "coordinates": [ 121.509039989443977, 25.041699998565804 ] } },
{ "type": "Feature", "properties": { "no": 7, "name": "捷運龍山寺站旅遊服務中心", "address": "臺北市萬華區西園路1段153號B1", "telephone": "886-2-23025903", "openingHours": "每日10：00-19：00", "type": "服務中心" }, "geometry": { "type": "Point", "coordinates": [ 121.499417831308762, 25.035823573934117 ] } },
{ "type": "Feature", "properties": { "no": 8, "name": "捷運台北101/世貿站旅遊服務中心", "address": "臺北市信義區信義路5段20號B1", "telephone": "886-2-27586593", "openingHours": "每日10：00-19：00", "type": "服務中心" }, "geometry": { "type": "Point", "coordinates": [ 121.563723226680452, 25.03283269398711 ] } },
{ "type": "Feature", "properties": { "no": 9, "name": "纜車貓空站遊客中心", "address": "臺北巿文山區指南路3段38巷35號", "telephone": "886-2-29378563", "openingHours": "每週二~週日09：00-18：00，週一如遇國定假日照常營業", "type": "服務中心" }, "geometry": { "type": "Point", "coordinates": [ 121.588309994707004, 24.968929991577255 ] } },
{ "type": "Feature", "properties": { "no": 10, "name": "大稻埕遊客中心", "address": "臺北市大同區迪化街1段44號", "telephone": "886-2-25596802", "openingHours": "每日09：00-18：00", "type": "服務中心" }, "geometry": { "type": "Point", "coordinates": [ 121.510010027098474, 25.054940010912219 ] } },
{ "type": "Feature", "properties": { "no": 11, "name": "西門町遊客中心", "address": "臺北市萬華區漢中街45號", "telephone": "886-2-23885255", "openingHours": "每日13：00-22：00", "type": "服務中心" }, "geometry": { "type": "Point", "coordinates": [ 121.507520015122168, 25.044259999433649 ] } }
]
}
