{
"type": "FeatureCollection",
"crs": { "type": "name", "properties": { "name": "urn:ogc:def:crs:OGC:1.3:CRS84" } },
"features": [
{ "type": "Feature", "properties": { "year": 2023, "name": "財團法人心路社會福利基金會", "type": "綜合障別", "business item": "職業重建服務", "address": "基金會：臺北市中山區吉林路364號4樓", "telephone": "2239-5319", "town": "中山區" }, "geometry": { "type": "Point", "coordinates": [ 121.530209994656104, 25.064069998946067 ] } },
{ "type": "Feature", "properties": { "year": 2023, "name": "財團法人伊甸社會福利基金會", "type": "綜合障別", "business item": "職業重建服務", "address": "基金會(公文)臺北市文山區萬美街1段55號3樓", "telephone": "2788-2656", "town": "文山區" }, "geometry": { "type": "Point", "coordinates": [ 121.568120001614147, 25.002329989803172 ] } },
{ "type": "Feature", "properties": { "year": 2023, "name": "財團法人第一社會福利基金會", "type": "綜合障別", "business item": "職業重建服務", "address": "基金會(公文)：臺北市信義區信義路5段150巷342弄17之7號", "telephone": "2722-4136", "town": "信義區" }, "geometry": { "type": "Point", "coordinates": [ 121.570529966415165, 25.02678000136595 ] } },
{ "type": "Feature", "properties": { "year": 2023, "name": "社團法人台北市視障生活品質福利促進會", "type": "綜合障別", "business item": "職業重建服務", "address": "臺北市大同區華陰街39號", "telephone": "2558-7370", "town": "大同區" }, "geometry": { "type": "Point", "coordinates": [ 121.519259960166778, 25.049399992008418 ] } },
{ "type": "Feature", "properties": { "year": 2023, "name": "台北市康復之友協會", "type": "綜合障別", "business item": "職業重建服務", "address": "臺北市松山區八德路4段604號2樓之6", "telephone": "27652947", "town": "松山區" }, "geometry": { "type": "Point", "coordinates": [ 121.5727000411473, 25.04977998558887 ] } },
{ "type": "Feature", "properties": { "year": 2023, "name": " 中華民國腦性麻痺協會", "type": "綜合障別", "business item": "職業重建服務", "address": "臺北市中山區民生東路1段42號5樓之5", "telephone": "2898-5509", "town": "中山區" }, "geometry": { "type": "Point", "coordinates": [ 121.524430001864403, 25.057930003412963 ] } },
{ "type": "Feature", "properties": { "year": 2023, "name": "財團法人育成社會福利基金會", "type": "綜合障別", "business item": "職業重建服務", "address": "基金會(公文)：臺北市大安區建國南路1段319號2樓", "telephone": "2706-2686", "town": "大安區" }, "geometry": { "type": "Point", "coordinates": [ 121.5382100183229, 25.034950010029107 ] } },
{ "type": "Feature", "properties": { "year": 2023, "name": "財團法人喜憨兒社會福利基金會", "type": "綜合障別", "business item": "職業重建服務", "address": "基金會(公文)：臺北市信義區信義路四段415號6樓", "telephone": "2720-2371", "town": "信義區" }, "geometry": { "type": "Point", "coordinates": [ 121.55952997578288, 25.033360004906243 ] } },
{ "type": "Feature", "properties": { "year": 2023, "name": "社團法人台北市視障者家長協會", "type": "綜合障別", "business item": "職業重建服務", "address": "臺北市松山區敦化北路155巷76號1樓", "telephone": "2717-7722", "town": "松山區" }, "geometry": { "type": "Point", "coordinates": [ 121.552138843990519, 25.054289107741987 ] } },
{ "type": "Feature", "properties": { "year": 2023, "name": "社團法人臺灣職能治療學會", "type": "綜合障別", "business item": "職業輔導評量服務", "address": "臺北市中正區忠孝東路2段122號11樓之2", "telephone": "2391-1006", "town": "中正區" }, "geometry": { "type": "Point", "coordinates": [ 121.531489995090055, 25.042480018475317 ] } },
{ "type": "Feature", "properties": { "year": 2023, "name": "社團法人中華民國腦性麻痺協會附設身心障礙者就業服務中心", "type": "綜合障別", "business item": "立案之就業服務機構", "address": "臺北市北投區三合街2段427號1樓", "telephone": "暫不提供", "town": "北投區" }, "geometry": { "type": "Point", "coordinates": [ 121.502649961739166, 25.126530013571738 ] } },
{ "type": "Feature", "properties": { "year": 2023, "name": "財團法人伊甸社會福利基金會附設台北市私立恩望身心障礙者人力資源服務中心", "type": "綜合障別", "business item": "立案之就業服務機構", "address": "臺北市南港區忠孝東路6段85號3樓", "telephone": "暫不提供", "town": "南港區" }, "geometry": { "type": "Point", "coordinates": [ 121.584660011150277, 25.048180006001232 ] } },
{ "type": "Feature", "properties": { "year": 2023, "name": "財團法人心路社會福利基金會附設身心障礙者就業服務中心", "type": "綜合障別", "business item": "立案之就業服務機構", "address": "臺北市文山區萬和街8號", "telephone": "暫不提供", "town": "文山區" }, "geometry": { "type": "Point", "coordinates": [ 121.567769973337533, 25.001930005383642 ] } },
{ "type": "Feature", "properties": { "year": 2023, "name": "財團法人育成社會福利基金會附設身心障礙者就業服務中心", "type": "綜合障別", "business item": "立案之就業服務機構", "address": "臺北市大安區建國南路1段175巷33號1樓", "telephone": "暫不提供", "town": "大安區" }, "geometry": { "type": "Point", "coordinates": [ 121.538979979948579, 25.040960002243963 ] } },
{ "type": "Feature", "properties": { "year": 2023, "name": "臺北市立聯合醫院附設身心障礙者就業服務中心", "type": "綜合障別", "business item": "立案之就業服務機構", "address": "臺北市大同區鄭州路145號（中興院區）、臺北市信義區松德路309號（松德院區）", "telephone": "暫不提供", "town": "大同區" }, "geometry": { "type": "Point", "coordinates": [ 121.508890037196181, 25.05069000881663 ] } },
{ "type": "Feature", "properties": { "year": 2023, "name": "愛加倍社會福利關懷協會附設身心障礙者就業服務中心", "type": "綜合障別", "business item": "立案之就業服務機構", "address": "臺北市大同區昌吉街55號2樓205室", "telephone": "暫不提供", "town": "大同區" }, "geometry": { "type": "Point", "coordinates": [ 121.51560000214522, 25.066009990436029 ] } },
{ "type": "Feature", "properties": { "year": 2023, "name": "社團法人中華民國視障經穴按摩推廣協會附設身心障礙者就業服務中心", "type": "綜合障別", "business item": "立案之就業服務機構", "address": "臺北市大同區雙連街11巷21號1樓", "telephone": "暫不提供", "town": "大同區" }, "geometry": { "type": "Point", "coordinates": [ 121.519920035041821, 25.05832001336772 ] } },
{ "type": "Feature", "properties": { "year": 2023, "name": "社團法人中華民國聽障人協會附設身心障礙者就業服務中心", "type": "綜合障別", "business item": "立案之就業服務機構", "address": "臺北市士林區承德路4段58巷10弄6號1樓", "telephone": "暫不提供", "town": "士林區" }, "geometry": { "type": "Point", "coordinates": [ 121.522309967094259, 25.081999979485758 ] } },
{ "type": "Feature", "properties": { "year": 2023, "name": "社團法人台北市視障生活品質福利促進會附設身心障礙者就業服務中心", "type": "綜合障別", "business item": "立案之就業服務機構", "address": "臺北市大同區華陰街39號", "telephone": "暫不提供", "town": "大同區" }, "geometry": { "type": "Point", "coordinates": [ 121.519259960166778, 25.049399992008418 ] } },
{ "type": "Feature", "properties": { "year": 2023, "name": "台北市自閉症家長協會附設身心障礙者就業服務中心", "type": "綜合障別", "business item": "立案之就業服務機構", "address": "臺北市大同區延平北路4段115號1樓 ", "telephone": "暫不提供", "town": "大同區" }, "geometry": { "type": "Point", "coordinates": [ 121.510990039217745, 25.071439996860661 ] } },
{ "type": "Feature", "properties": { "year": 2023, "name": "社團法人台北市康復之友協會附設身心障礙者就業服務中心", "type": "綜合障別", "business item": "立案之就業服務機構", "address": "臺北市松山區八德路4段604號2樓之6", "telephone": "暫不提供", "town": "松山區" }, "geometry": { "type": "Point", "coordinates": [ 121.5727000411473, 25.04977998558887 ] } },
{ "type": "Feature", "properties": { "year": 2023, "name": "財團法人中華民國唐氏症基金會附設麟光身心障礙者就業服務中心", "type": "綜合障別", "business item": "立案之就業服務機構", "address": "臺北市信義區和平東路3段391巷19號1樓", "telephone": "暫不提供", "town": "信義區" }, "geometry": { "type": "Point", "coordinates": [ 121.558419960345361, 25.020180006986564 ] } },
{ "type": "Feature", "properties": { "year": 2023, "name": "社團法人台北市視障者家長協會附設身心障礙者就業服務中心 ", "type": "綜合障別", "business item": "立案之就業服務機構", "address": "臺北市松山區敦化北路155巷76號1樓", "telephone": "暫不提供", "town": "松山區" }, "geometry": { "type": "Point", "coordinates": [ 121.552138843990519, 25.054289107741987 ] } },
{ "type": "Feature", "properties": { "year": 2023, "name": "財團法人喜憨兒社會福利基金會附設身心障礙者就業服務中心", "type": "綜合障別", "business item": "立案之就業服務機構", "address": "臺北市信義區仁愛路4段452巷13號1樓", "telephone": "暫不提供", "town": "信義區" }, "geometry": { "type": "Point", "coordinates": [ 121.559310034643545, 25.036679992935007 ] } },
{ "type": "Feature", "properties": { "year": 2023, "name": "ENJOY臺北餐廳", "type": "綜合障別", "business item": "餐飲業", "address": "臺北市信義區市府路1號1樓", "telephone": "2720-5208", "town": "信義區" }, "geometry": { "type": "Point", "coordinates": [ 121.56441997809543, 25.037519985361726 ] } },
{ "type": "Feature", "properties": { "year": 2023, "name": "勝利基金會辦理樸樹咖啡捷運古亭店 (捷運古亭庇護工場)", "type": "綜合障別", "business item": "餐飲業", "address": "臺北市中正區羅斯福路2段164-1號", "telephone": "2368-9093", "town": "中正區" }, "geometry": { "type": "Point", "coordinates": [ 121.523300037497336, 25.025530008145395 ] } },
{ "type": "Feature", "properties": { "year": 2023, "name": "EasyCoffee (捷運善導寺庇護工場)", "type": "綜合障別", "business item": "餐飲業", "address": "臺北市中正區忠孝東路1段58號B1", "telephone": "2395-6102", "town": "中正區" }, "geometry": { "type": "Point", "coordinates": [ 121.523583790351452, 25.044654617287105 ] } },
{ "type": "Feature", "properties": { "year": 2023, "name": "樂芽一號庇護工場 (富陽1店庇護工場)", "type": "綜合障別", "business item": "食品製迼業、批發及零售業", "address": "臺北市信義區和平東路3段341巷3號1樓", "telephone": "8732-8101", "town": "信義區" }, "geometry": { "type": "Point", "coordinates": [ 121.557749994824519, 25.021310013263161 ] } },
{ "type": "Feature", "properties": { "year": 2023, "name": "有度立體書店 (富陽2店庇護工場)", "type": "綜合障別", "business item": "印刷品裝訂、圖書出版業、零售業", "address": "臺北市信義區和平東路3段341巷7號1樓", "telephone": "8732-4909", "town": "信義區" }, "geometry": { "type": "Point", "coordinates": [ 121.55698003319884, 25.020870005255972 ] } },
{ "type": "Feature", "properties": { "year": 2023, "name": "育成洗車中心 (建忠庇護工場)", "type": "綜合障別", "business item": "汽車美容、清潔用品零售業、未分類其他食品、飲料及箊草製品零售", "address": "臺北市大安區建國南路、濟南路口高架橋下", "telephone": "2711-5842", "town": "大安區" }, "geometry": { "type": "Point", "coordinates": [ 121.53477, 25.02634 ] } },
{ "type": "Feature", "properties": { "year": 2023, "name": "光仁二手商品館大直店 (捷運大直庇護工場)", "type": "綜合障別", "business item": "零售業", "address": "臺北市中山區北安路534-1號", "telephone": "8509-8601", "town": "中山區" }, "geometry": { "type": "Point", "coordinates": [ 121.546880007510481, 25.079660003576265 ] } },
{ "type": "Feature", "properties": { "year": 2023, "name": "育成蕃薯藤 (忠孝庇護工場)", "type": "綜合障別", "business item": "餐飲業、西點麵包零售、清潔用品零售業、未分類其他食品、飲料及箊草製品零售", "address": "臺北市大安區建國南路一段181號", "telephone": "2752-1785", "town": "大安區" }, "geometry": { "type": "Point", "coordinates": [ 121.53769000504991, 25.040560017824433 ] } },
{ "type": "Feature", "properties": { "year": 2023, "name": "地熱谷小舖 (地熱谷庇護工場)", "type": "綜合障別", "business item": "零售業", "address": "臺北市北投區中山路30-10號2樓", "telephone": "2895-0556", "town": "北投區" }, "geometry": { "type": "Point", "coordinates": [ 121.511420030850672, 25.137820018053901 ] } },
{ "type": "Feature", "properties": { "year": 2023, "name": "愛不囉嗦庇護工場南港店 (捷運南港展覽館庇護工場)", "type": "綜合障別", "business item": "食品製造業、零售業", "address": "臺北市南港區研究院路1段1號B2(捷運南港展覽館站6號出口內)", "telephone": "2653-8321", "town": "南港區" }, "geometry": { "type": "Point", "coordinates": [ 121.616697540343495, 25.054881438952428 ] } },
{ "type": "Feature", "properties": { "year": 2023, "name": "樂芽永續股份有限公司青年1庇護工場", "type": "綜合障別", "business item": "食品製造業、批發及零售業", "address": "臺北市萬華區青年路152巷6號", "telephone": "7752-2518", "town": "萬華區" }, "geometry": { "type": "Point", "coordinates": [ 121.502109999536572, 25.02123000799736 ] } },
{ "type": "Feature", "properties": { "year": 2023, "name": "樂芽永續股份有限公司青年2庇護工場", "type": "綜合障別", "business item": "食品製造業、批發及零售業", "address": "臺北市萬華區青年路152巷14號", "telephone": "7752-2518", "town": "萬華區" }, "geometry": { "type": "Point", "coordinates": [ 121.501959963469744, 25.02106999746573 ] } },
{ "type": "Feature", "properties": { "year": 2023, "name": "光仁選品萬大店 (萬大庇護工場)", "type": "綜合障別", "business item": "零售業", "address": "臺北市萬華區萬大路423巷38號", "telephone": "2305-0025", "town": "萬華區" }, "geometry": { "type": "Point", "coordinates": [ 121.499910001410115, 25.021080013840034 ] } },
{ "type": "Feature", "properties": { "year": 2023, "name": "第一輔具庇護工場 (國光國宅庇護工場)", "type": "綜合障別", "business item": "輔具清潔、販售", "address": "臺北市萬華區國興路22、24號1樓", "telephone": "2303-3366", "town": "萬華區" }, "geometry": { "type": "Point", "coordinates": [ 121.508063826879592, 25.024479592658501 ] } },
{ "type": "Feature", "properties": { "year": 2023, "name": "財團法人心路社會福利基金會附設心路洗衣坊 ", "type": "綜合障別", "business item": "洗衣業、零售業", "address": "臺北市信義區嘉興街303之5號1樓", "telephone": "8732-6590", "town": "信義區" }, "geometry": { "type": "Point", "coordinates": [ 121.554920012855405, 25.023519985854406 ] } },
{ "type": "Feature", "properties": { "year": 2023, "name": "神腦國際手機維修庇護工場", "type": "綜合障別", "business item": "個人及家庭用品維修業、零售業", "address": "臺北市松山區民權東路3段102號1樓", "telephone": "2718-6060", "town": "松山區" }, "geometry": { "type": "Point", "coordinates": [ 121.544719991062152, 25.061900008032978 ] } },
{ "type": "Feature", "properties": { "year": 2023, "name": "臺北榮民總醫院附設庇護工場", "type": "綜合障別", "business item": "餐飲業、清潔服務業、零售業", "address": "臺北市北投區石牌路2段201號", "telephone": "2875-7027", "town": "北投區" }, "geometry": { "type": "Point", "coordinates": [ 121.521410002150276, 25.11985998839134 ] } },
{ "type": "Feature", "properties": { "year": 2023, "name": "財團法人伊甸社會福利基金會附設阿萬師清潔工作隊", "type": "綜合障別", "business item": "清潔服務業", "address": "臺北市文山區萬美街一段55號3樓之7", "telephone": "2230-6670", "town": "文山區" }, "geometry": { "type": "Point", "coordinates": [ 121.568120001614147, 25.002329989803172 ] } },
{ "type": "Feature", "properties": { "year": 2023, "name": "臺北醫學大學附設醫院樂活屋庇護商店", "type": "綜合障別", "business item": "零售業", "address": "臺北市信義區吳興街252號", "telephone": "2737-2181", "town": "信義區" }, "geometry": { "type": "Point", "coordinates": [ 121.563639958185888, 25.026630007208624 ] } },
{ "type": "Feature", "properties": { "year": 2023, "name": "財團法人天主教光仁社會福利基金會光仁二手商品館忠孝店", "type": "綜合障別", "business item": "零售業", "address": "臺北市大安區忠孝東路3段217巷2弄14號", "telephone": "2721-8924", "town": "大安區" }, "geometry": { "type": "Point", "coordinates": [ 121.54051001255425, 25.042229986303596 ] } },
{ "type": "Feature", "properties": { "year": 2023, "name": "財團法人伊甸社會福利基金會附設數位資料處理庇護工場", "type": "綜合障別", "business item": "業務及辦公室支援服務業", "address": "臺北市文山區萬美街1段55號3樓之10", "telephone": "2230-8002", "town": "文山區" }, "geometry": { "type": "Point", "coordinates": [ 121.568120001614147, 25.002329989803172 ] } },
{ "type": "Feature", "properties": { "year": 2023, "name": "財團法人心路社會福利基金會附設心路機動工作隊", "type": "綜合障別", "business item": "清潔服務、業務及辦公室支援服務業", "address": "臺北市文山區萬美街1段59號", "telephone": "2230-6503", "town": "文山區" }, "geometry": { "type": "Point", "coordinates": [ 121.567720017194631, 25.002190012020151 ] } },
{ "type": "Feature", "properties": { "year": 2023, "name": "馬偕紀念醫院附設喜樂工作坊", "type": "綜合障別", "business item": "餐飲業、零售業", "address": "臺北市中山區中山北路2段92號福音樓3樓", "telephone": "2543-3535", "town": "中山區" }, "geometry": { "type": "Point", "coordinates": [ 121.52255999926598, 25.058880008318866 ] } },
{ "type": "Feature", "properties": { "year": 2023, "name": "糕菲庇護工場", "type": "綜合障別", "business item": "食品製造業、其他餐飲業", "address": "臺北市內湖區行愛路140巷25號", "telephone": "2785-2499", "town": "內湖區" }, "geometry": { "type": "Point", "coordinates": [ 121.579389973347702, 25.0636100000998 ] } },
{ "type": "Feature", "properties": { "year": 2023, "name": "台北市康復之友協會附設勞務服務中心", "type": "綜合障別", "business item": "清潔服務業", "address": "臺北市松山區八德路4段604號2樓之6", "telephone": "2765-2810", "town": "松山區" }, "geometry": { "type": "Point", "coordinates": [ 121.5727000411473, 25.04977998558887 ] } },
{ "type": "Feature", "properties": { "year": 2023, "name": "曦望數位設計印刷庇護工場", "type": "綜合障別", "business item": "產品設計業、排版業、資料處理服務業、影印業、文具零售業、日常用品零售業、理貨包裝業", "address": "臺北市萬華區西園路2段261巷12弄44號1樓及279-9號1樓", "telephone": "2309-3138", "town": "萬華區" }, "geometry": { "type": "Point", "coordinates": [ 121.491900003278602, 25.024749988235882 ] } },
{ "type": "Feature", "properties": { "year": 2023, "name": "台北市自閉症家長協會附設小貝殼工作坊", "type": "綜合障別", "business item": "其他全新商品零售業", "address": "臺北市大同區酒泉街195號", "telephone": "2595-3954", "town": "大同區" }, "geometry": { "type": "Point", "coordinates": [ 121.51202998194475, 25.07219998402158 ] } },
{ "type": "Feature", "properties": { "year": 2023, "name": "臺北市立聯合醫院附設庇護工場", "type": "綜合障別", "business item": "餐飲業、零售業", "address": "臺北市大安區仁愛路4段10號醫療大樓2樓、南棟6樓", "telephone": "2709-3600", "town": "大安區" }, "geometry": { "type": "Point", "coordinates": [ 121.545620039825167, 25.037660005054278 ] } },
{ "type": "Feature", "properties": { "year": 2023, "name": "三軍總醫院北投分院附設庇護工場", "type": "綜合障別", "business item": "清潔服務業、零售業", "address": "臺北市北投區新民路60號", "telephone": "2895-9808", "town": "北投區" }, "geometry": { "type": "Point", "coordinates": [ 121.509710038783851, 25.139849989274452 ] } },
{ "type": "Feature", "properties": { "year": 2023, "name": "傳玻者文創設計中心", "type": "綜合障別", "business item": "其他專門設計業", "address": "臺北市大同區民族西路162巷2、4號1樓", "telephone": "2881-2895", "town": "大同區" }, "geometry": { "type": "Point", "coordinates": [ 121.515355818453017, 25.068553533668169 ] } },
{ "type": "Feature", "properties": { "year": 2023, "name": "勝利資訊數位辨識處理中心", "type": "綜合障別", "business item": "業務及辦公室支援服務業", "address": "臺北市信義區基隆路2段149之17號9樓", "telephone": "2733-8174", "town": "信義區" }, "geometry": { "type": "Point", "coordinates": [ 121.555559971162836, 25.026810008579318 ] } },
{ "type": "Feature", "properties": { "year": 2023, "name": "財團法人喜憨兒社會福利基金會喜憨兒烘焙屋", "type": "綜合障別", "business item": "食品製造業", "address": "光復店：臺北市信義區光復南路461號", "telephone": "2725-2759", "town": "信義區" }, "geometry": { "type": "Point", "coordinates": [ 121.557680005933037, 25.034199997332976 ] } },
{ "type": "Feature", "properties": { "year": 2023, "name": "財團法人台北市自閉兒社會福利基金會附設愛肯樂活工場", "type": "綜合障別", "business item": "飲食成品、零售業", "address": "臺北市大同區甘谷街16號2樓", "telephone": "2599-3803", "town": "大同區" }, "geometry": { "type": "Point", "coordinates": [ 121.511200005892306, 25.052710005572393 ] } },
{ "type": "Feature", "properties": { "year": 2023, "name": "勝利數位設計印刷中心", "type": "綜合障別", "business item": "印刷及其輔助業、文具批發業", "address": "臺北市大安區和平東路2段53巷2號9樓", "telephone": "2754-0526", "town": "大安區" }, "geometry": { "type": "Point", "coordinates": [ 121.538410010532687, 25.02579001478189 ] } },
{ "type": "Feature", "properties": { "year": 2023, "name": "新品文具庇護工場", "type": "綜合障別", "business item": "文具製造業、文具批發業", "address": "臺北市士林區承德路4段180號3樓", "telephone": "2889-1155", "town": "士林區" }, "geometry": { "type": "Point", "coordinates": [ 121.522529992052625, 25.086800002067719 ] } },
{ "type": "Feature", "properties": { "year": 2023, "name": "勝利便利商店松醫店", "type": "綜合障別", "business item": "零售業", "address": "臺北市松山區健康路158號", "telephone": "7723-0420", "town": "松山區" }, "geometry": { "type": "Point", "coordinates": [ 121.557879998142766, 25.053439985519944 ] } },
{ "type": "Feature", "properties": { "year": 2023, "name": "愛不囉嗦庇護工場", "type": "綜合障別", "business item": "食品製造業、零售業", "address": "臺北市大同區承德路3段212之5號1樓", "telephone": "2586-9321", "town": "大同區" }, "geometry": { "type": "Point", "coordinates": [ 121.518060006908172, 25.071279986329046 ] } },
{ "type": "Feature", "properties": { "year": 2023, "name": "伊果文創印刷庇護工場", "type": "綜合障別", "business item": "印刷及其輔助業、其他專門設計業", "address": "臺北市文山區保儀路9號4樓", "telephone": "2939-2169", "town": "文山區" }, "geometry": { "type": "Point", "coordinates": [ 121.568250004932395, 24.986919986543668 ] } },
{ "type": "Feature", "properties": { "year": 2023, "name": "第一物業管理庇護工場", "type": "綜合障別", "business item": "清潔服務、複合支援服務業", "address": "臺北市文山區萬隆街54號1樓", "telephone": "2722-4136", "town": "文山區" }, "geometry": { "type": "Point", "coordinates": [ 121.537350035057102, 25.000719993841244 ] } },
{ "type": "Feature", "properties": { "year": 2023, "name": "勝利便利商店敦中店", "type": "綜合障別", "business item": "零售業", "address": "臺北市松山區敦化北路4巷1號", "telephone": "7713-7209", "town": "松山區" }, "geometry": { "type": "Point", "coordinates": [ 121.547340006356762, 25.050059983064443 ] } },
{ "type": "Feature", "properties": { "year": 2023, "name": "財團法人台北市勝利社會福利事業基金會SUBWAY仁愛延吉店", "type": "綜合障別", "business item": "餐飲業", "address": "臺北市大安區延吉街228巷3號1樓", "telephone": "2702-3652", "town": "大安區" }, "geometry": { "type": "Point", "coordinates": [ 121.555340030023501, 25.036939999571501 ] } },
{ "type": "Feature", "properties": { "year": 2023, "name": "樸樹咖啡", "type": "綜合障別", "business item": "餐飲業", "address": "臺北市萬華區廣州街95-1、95-2、95-3號", "telephone": "2306-6308", "town": "萬華區" }, "geometry": { "type": "Point", "coordinates": [ 121.503819991603393, 25.03662999488256 ] } },
{ "type": "Feature", "properties": { "year": 2023, "name": "勝利加油站 (大安加油站)", "type": "綜合障別", "business item": "加油站業", "address": "臺北市大安區建國南路2段75-1號", "telephone": "2755-5499", "town": "大安區" }, "geometry": { "type": "Point", "coordinates": [ 121.537850015581512, 25.030969989034801 ] } },
{ "type": "Feature", "properties": { "year": 2023, "name": "陽光加油站 (市民加油站)", "type": "綜合障別", "business item": "加油站業", "address": "臺北市大安區建國南路1段57-1號", "telephone": "2752-9929", "town": "大安區" }, "geometry": { "type": "Point", "coordinates": [ 121.536845143721663, 25.044507546410639 ] } },
{ "type": "Feature", "properties": { "year": 2023, "name": "陽光汽車美容中心 (建和社會企業)", "type": "綜合障別", "business item": "汽車美容業", "address": "臺北市大安區建國南路2段280號", "telephone": "2365-7791", "town": "大安區" }, "geometry": { "type": "Point", "coordinates": [ 121.537409714207683, 25.02505001846005 ] } },
{ "type": "Feature", "properties": { "year": 2023, "name": "建北加油站", "type": "綜合障別", "business item": "加油站業", "address": "臺北市中山區建國北路3段91之1號", "telephone": "2515-0228", "town": "中山區" }, "geometry": { "type": "Point", "coordinates": [ 121.536770007357347, 25.065699985747088 ] } },
{ "type": "Feature", "properties": { "year": 2023, "name": "勝利廚房 (臺北社企館1、2F)", "type": "綜合障別", "business item": "餐飲業", "address": "臺北市中山區八德路2段174巷28號1、2樓", "telephone": "2776-6603", "town": "中山區" }, "geometry": { "type": "Point", "coordinates": [ 121.553979631569121, 25.044923332363378 ] } },
{ "type": "Feature", "properties": { "year": 2023, "name": "TaipeiSESquare交流空間 (臺北社企館3F)", "type": "綜合障別", "business item": "多功能會議廳、空間場地出借", "address": "臺北市中山區八德路2段174巷28號3樓", "telephone": "8772-6020", "town": "中山區" }, "geometry": { "type": "Point", "coordinates": [ 121.538180011109546, 25.045260002391998 ] } },
{ "type": "Feature", "properties": { "year": 2023, "name": "黑暗對話社會企業股份有限公司(臺北社企館4F)", "type": "綜合障別", "business item": "教育課程", "address": "臺北市中山區八德路2段174巷28號4樓", "telephone": "8772-3100", "town": "中山區" }, "geometry": { "type": "Point", "coordinates": [ 121.538180011109546, 25.045260002391998 ] } },
{ "type": "Feature", "properties": { "year": 2023, "name": "視障者音樂發展中心 (臺北社企館5F)", "type": "綜合障別", "business item": "藝文服務、文教服務、樂器/育樂用品出租銷售", "address": "臺北市中山區八德路2段174巷28號5樓", "telephone": "7730-7388", "town": "中山區" }, "geometry": { "type": "Point", "coordinates": [ 121.538180011109546, 25.045260002391998 ] } },
{ "type": "Feature", "properties": { "year": 2023, "name": "陽光活力中心八德館 (臺北社企館6、7F)", "type": "綜合障別", "business item": "運動、輕食飲料、運動相關百貨零售", "address": "臺北市中山區八德路2段174巷28號6、7樓", "telephone": "2772-8816", "town": "中山區" }, "geometry": { "type": "Point", "coordinates": [ 121.553979631569121, 25.044923332363378 ] } }
]
}
