{
"type": "FeatureCollection",
"crs": { "type": "name", "properties": { "name": "urn:ogc:def:crs:OGC:1.3:CRS84" } },
"features": [
{ "type": "Feature", "properties": { "no": 1, "name": "有記名茶", "address": "臺北市大同區重慶北路二段64巷26號", "type": "借問站" }, "geometry": { "type": "Point", "coordinates": [ 121.513060034025955, 25.055689981698848 ] } },
{ "type": "Feature", "properties": { "no": 2, "name": "台北地下街", "address": "臺北市中正區市民大道一段100號B1", "type": "借問站" }, "geometry": { "type": "Point", "coordinates": [ 121.518420174285069, 25.048293415662048 ] } },
{ "type": "Feature", "properties": { "no": 3, "name": "華山1914文化創意產業園區", "address": "臺北市中正區八德路一段1號", "type": "借問站" }, "geometry": { "type": "Point", "coordinates": [ 121.529010041397555, 25.043630015590992 ] } },
{ "type": "Feature", "properties": { "no": 4, "name": "東東玩具城", "address": "臺北市大同區太原路54號", "type": "借問站" }, "geometry": { "type": "Point", "coordinates": [ 121.515290039365766, 25.051000013505572 ] } },
{ "type": "Feature", "properties": { "no": 5, "name": "財團法人台北市關渡宮", "address": "臺北市北投區知行路360號", "type": "借問站" }, "geometry": { "type": "Point", "coordinates": [ 121.464039982046927, 25.117629983051501 ] } },
{ "type": "Feature", "properties": { "no": 6, "name": "穠舍田園咖啡義大利菜", "address": "臺北市內湖區碧山路38號", "type": "借問站" }, "geometry": { "type": "Point", "coordinates": [ 121.588869989658178, 25.101309998473766 ] } },
{ "type": "Feature", "properties": { "no": 7, "name": "亞尼克夢想村陽明山店", "address": "臺北市士林區長春街6巷5號", "type": "借問站" }, "geometry": { "type": "Point", "coordinates": [ 121.543699997264753, 25.137439982563933 ] } },
{ "type": "Feature", "properties": { "no": 8, "name": "雅博客二手書店", "address": "臺北市大安區新生南路3段76巷9號1樓", "type": "借問站" }, "geometry": { "type": "Point", "coordinates": [ 121.533099991051984, 25.019099998762414 ] } },
{ "type": "Feature", "properties": { "no": 9, "name": "長榮海事博物館", "address": "臺北市中正區中山南路11號", "type": "借問站" }, "geometry": { "type": "Point", "coordinates": [ 121.518680016286055, 25.03871000606506 ] } },
{ "type": "Feature", "properties": { "no": 10, "name": "町記憶旅店", "address": "臺北市萬華區昆明街119號", "type": "借問站" }, "geometry": { "type": "Point", "coordinates": [ 121.504679974869191, 25.041899990775576 ] } },
{ "type": "Feature", "properties": { "no": 11, "name": "途中台北青年旅舍", "address": "臺北市北投區光明路82號", "type": "借問站" }, "geometry": { "type": "Point", "coordinates": [ 121.500660014106245, 25.13301999547194 ] } },
{ "type": "Feature", "properties": { "no": 12, "name": "禮客outlet公館店", "address": "臺北市中正區思源街16號1樓", "type": "借問站" }, "geometry": { "type": "Point", "coordinates": [ 121.529640025240212, 25.013270007918251 ] } },
{ "type": "Feature", "properties": { "no": 13, "name": "門片咖啡", "address": "臺北市士林區天玉街38巷7號", "type": "借問站" }, "geometry": { "type": "Point", "coordinates": [ 121.529069972005232, 25.120690006353286 ] } },
{ "type": "Feature", "properties": { "no": 14, "name": "遊藝思文創空間", "address": "臺北市大安區辛亥路二段171巷15號", "type": "借問站" }, "geometry": { "type": "Point", "coordinates": [ 121.541209985288447, 25.022319990686285 ] } },
{ "type": "Feature", "properties": { "no": 15, "name": "大華行－竹木造咖", "address": "臺北市大同區迪化街1段161號", "type": "借問站" }, "geometry": { "type": "Point", "coordinates": [ 121.509650024357086, 25.058459991150755 ] } },
{ "type": "Feature", "properties": { "no": 16, "name": "大稻埕花園旅店", "address": "臺北市大同區迪化街1段334號", "type": "借問站" }, "geometry": { "type": "Point", "coordinates": [ 121.509169992762224, 25.062180005508566 ] } },
{ "type": "Feature", "properties": { "no": 17, "name": "丹迪旅店大安森林公園店", "address": "臺北市大安區信義路3段33號", "type": "借問站" }, "geometry": { "type": "Point", "coordinates": [ 121.534619965373849, 25.033759989325773 ] } },
{ "type": "Feature", "properties": { "no": 18, "name": "台北馥華商旅南港館", "address": "臺北市南港區三重路23號", "type": "借問站" }, "geometry": { "type": "Point", "coordinates": [ 121.614079988381889, 25.059279992738396 ] } },
{ "type": "Feature", "properties": { "no": 19, "name": "郭元益糕餅博物館", "address": "臺北市士林區文林路546號4樓", "type": "借問站" }, "geometry": { "type": "Point", "coordinates": [ 121.524090031871594, 25.097419999119552 ] } }
]
}
