{
"type": "FeatureCollection",
"crs": { "type": "name", "properties": { "name": "urn:ogc:def:crs:OGC:1.3:CRS84" } },
"features": [
{ "type": "Feature", "properties": { "index": 0, "Location": "臺北市忠孝東路五段", "Item": "違規停車", "Dist": "信義", "Direction": "西往東" }, "geometry": { "type": "Point", "coordinates": [ 121.58158837333518, 25.043634893765883 ] } },
{ "type": "Feature", "properties": { "index": 1, "Location": "臺北市市民大道一段", "Item": "違規停車", "Dist": "中正一", "Direction": "西往東" }, "geometry": { "type": "Point", "coordinates": [ 121.520655002221787, 25.047994996443386 ] } },
{ "type": "Feature", "properties": { "index": 2, "Location": "臺北市吳興街220巷", "Item": "違規停車", "Dist": "信義", "Direction": "南北雙向" }, "geometry": { "type": "Point", "coordinates": [ 121.559103013174933, 25.025990006991663 ] } },
{ "type": "Feature", "properties": { "index": 3, "Location": "臺北市中山北路二段92號", "Item": "違規停車", "Dist": "中山", "Direction": "北往南" }, "geometry": { "type": "Point", "coordinates": [ 121.52255999926598, 25.058880008318866 ] } },
{ "type": "Feature", "properties": { "index": 4, "Location": "臺北市市民大道一段", "Item": "違規停車", "Dist": "大同", "Direction": "東西雙向" }, "geometry": { "type": "Point", "coordinates": [ 121.520655002221787, 25.047994996443386 ] } },
{ "type": "Feature", "properties": { "index": 5, "Location": "臺北市市民大道八段", "Item": "違規停車", "Dist": "南港", "Direction": "東西雙向" }, "geometry": { "type": "Point", "coordinates": [ 121.615491606770107, 25.054425967357272 ] } },
{ "type": "Feature", "properties": { "index": 6, "Location": "臺北市內湖路一段739號", "Item": "違規停車", "Dist": "內湖", "Direction": "東西雙向" }, "geometry": { "type": "Point", "coordinates": [ 121.578360005085528, 25.078970005306871 ] } },
{ "type": "Feature", "properties": { "index": 7, "Location": "臺北市羅斯福路四段68號至108巷", "Item": "違規停車", "Dist": "中正二", "Direction": "南北雙向" }, "geometry": { "type": "Point", "coordinates": [ 121.534999333586825, 25.013087036342121 ] } },
{ "type": "Feature", "properties": { "index": 8, "Location": "臺北市石牌路二段", "Item": "違規停車", "Dist": "北投", "Direction": "東西雙向" }, "geometry": { "type": "Point", "coordinates": [ 121.516035527151885, 25.116369953503536 ] } },
{ "type": "Feature", "properties": { "index": 8, "Location": "臺北市立農街及石牌路二段", "Item": "違規停車", "Dist": "北投", "Direction": "東西雙向" }, "geometry": { "type": "Point", "coordinates": [ 121.516035527151885, 25.116369953503536 ] } },
{ "type": "Feature", "properties": { "index": 8, "Location": "臺北市天母西路", "Item": "違規停車", "Dist": "北投", "Direction": "東西雙向" }, "geometry": { "type": "Point", "coordinates": [ 121.522987510708219, 25.118942851933102 ] } },
{ "type": "Feature", "properties": { "index": 9, "Location": "臺北市近臺北車站及臺北轉運站", "Item": "逾10噸大貨車違規行駛、機車違規行駛及行駛路肩", "Dist": "中正一、中山", "Direction": "東西雙向" }, "geometry": { "type": "Point", "coordinates": [ 121.51753, 25.04897 ] } },
{ "type": "Feature", "properties": { "index": 10, "Location": "臺北市市民大道", "Item": "逾10噸大貨車違規行駛、機車違規行駛及不依標誌標線號誌指示行駛", "Dist": "大安", "Direction": "南北雙向" }, "geometry": { "type": "Point", "coordinates": [ 121.530721359691938, 25.0459546563369 ] } },
{ "type": "Feature", "properties": { "index": 11, "Location": "臺北市鄭州路", "Item": "闖紅燈、不停讓行人、不依規定轉彎、不依標誌標線號誌指示行駛", "Dist": "大同", "Direction": "多向" }, "geometry": { "type": "Point", "coordinates": [ 121.5124420544103, 25.049651028888444 ] } },
{ "type": "Feature", "properties": { "index": 11, "Location": "臺北市西寧北路", "Item": "闖紅燈、不停讓行人、不依規定轉彎、不依標誌標線號誌指示行駛", "Dist": "大同", "Direction": "多向" }, "geometry": { "type": "Point", "coordinates": [ 121.508877324771518, 25.055177430615444 ] } },
{ "type": "Feature", "properties": { "index": 12, "Location": "臺北市市民大道", "Item": "闖紅燈、不停讓行人、不依規定轉彎、不依標誌標線號誌指示行駛、違規停車", "Dist": "中正一、大同", "Direction": "多向" }, "geometry": { "type": "Point", "coordinates": [ 121.530721359691938, 25.0459546563369 ] } },
{ "type": "Feature", "properties": { "index": 12, "Location": "臺北市承德路", "Item": "闖紅燈、不停讓行人、不依規定轉彎、不依標誌標線號誌指示行駛、違規停車", "Dist": "中正一、大同", "Direction": "多向" }, "geometry": { "type": "Point", "coordinates": [ 121.486132100216295, 25.121771816323299 ] } },
{ "type": "Feature", "properties": { "index": 13, "Location": "臺北市民權西路", "Item": "闖紅燈、不依規定轉彎、不依標誌標線號誌指示行駛", "Dist": "大同", "Direction": "多向" }, "geometry": { "type": "Point", "coordinates": [ 121.522559999265951, 25.062889994617038 ] } },
{ "type": "Feature", "properties": { "index": 13, "Location": "臺北市承德路", "Item": "闖紅燈、不依規定轉彎、不依標誌標線號誌指示行駛", "Dist": "大同", "Direction": "多向" }, "geometry": { "type": "Point", "coordinates": [ 121.486132100216295, 25.121771816323299 ] } },
{ "type": "Feature", "properties": { "index": 14, "Location": "臺北市民權西路", "Item": "闖紅燈、不停讓行人、不依規定轉彎、不依標誌標線號誌指示行駛、汽車行駛機車道(上匝)", "Dist": "大同", "Direction": "多向" }, "geometry": { "type": "Point", "coordinates": [ 121.522559999265951, 25.062889994617038 ] } },
{ "type": "Feature", "properties": { "index": 14, "Location": "臺北市延平北路", "Item": "闖紅燈、不停讓行人、不依規定轉彎、不依標誌標線號誌指示行駛、汽車行駛機車道(上匝)", "Dist": "大同", "Direction": "多向" }, "geometry": { "type": "Point", "coordinates": [ 121.484053144339313, 25.103123673551373 ] } },
{ "type": "Feature", "properties": { "index": 15, "Location": "臺北市民權西路", "Item": "闖紅燈、不依規定轉彎", "Dist": "大同", "Direction": "多向" }, "geometry": { "type": "Point", "coordinates": [ 121.522559999265951, 25.062889994617038 ] } },
{ "type": "Feature", "properties": { "index": 15, "Location": "臺北市蘭州街", "Item": "闖紅燈、不依規定轉彎", "Dist": "大同", "Direction": "多向" }, "geometry": { "type": "Point", "coordinates": [ 121.514347655100394, 25.062087117004676 ] } },
{ "type": "Feature", "properties": { "index": 16, "Location": "臺北市大直街", "Item": "闖紅燈、不依規定轉彎、不依標誌標線號誌指示行駛、違規停車", "Dist": "中山", "Direction": "多向" }, "geometry": { "type": "Point", "coordinates": [ 121.546344993959593, 25.083189515331064 ] } },
{ "type": "Feature", "properties": { "index": 16, "Location": "臺北市北安路", "Item": "闖紅燈、不依規定轉彎、不依標誌標線號誌指示行駛、違規停車", "Dist": "中山", "Direction": "多向" }, "geometry": { "type": "Point", "coordinates": [ 121.539045093220025, 25.078306684468767 ] } },
{ "type": "Feature", "properties": { "index": 17, "Location": "臺北市民權東路", "Item": "闖紅燈、不停讓行人、不依規定轉彎、不依標誌標線號誌指示行駛、違規停車", "Dist": "中山", "Direction": "多向" }, "geometry": { "type": "Point", "coordinates": [ 121.578880043361735, 25.068238584950159 ] } },
{ "type": "Feature", "properties": { "index": 17, "Location": "臺北市建國北路", "Item": "闖紅燈、不停讓行人、不依規定轉彎、不依標誌標線號誌指示行駛、違規停車", "Dist": "中山", "Direction": "多向" }, "geometry": { "type": "Point", "coordinates": [ 121.536414473108309, 25.0554052193968 ] } },
{ "type": "Feature", "properties": { "index": 18, "Location": "臺北市市民大道", "Item": "闖紅燈、不停讓行人、不依規定轉彎、不依標誌標線號誌指示行駛", "Dist": "中山、中正一", "Direction": "多向" }, "geometry": { "type": "Point", "coordinates": [ 121.530721359691938, 25.0459546563369 ] } },
{ "type": "Feature", "properties": { "index": 18, "Location": "臺北市中山北路", "Item": "闖紅燈、不停讓行人、不依規定轉彎、不依標誌標線號誌指示行駛", "Dist": "中山、中正一", "Direction": "多向" }, "geometry": { "type": "Point", "coordinates": [ 121.527011683486137, 25.102255872979793 ] } },
{ "type": "Feature", "properties": { "index": 19, "Location": "臺北市市民大道", "Item": "闖紅燈、不依規定轉彎、不依標誌標線號誌指示行駛", "Dist": "中山、大安", "Direction": "多向" }, "geometry": { "type": "Point", "coordinates": [ 121.530721359691938, 25.0459546563369 ] } },
{ "type": "Feature", "properties": { "index": 19, "Location": "臺北市建國南路", "Item": "闖紅燈、不依規定轉彎、不依標誌標線號誌指示行駛", "Dist": "中山、大安", "Direction": "多向" }, "geometry": { "type": "Point", "coordinates": [ 121.56355, 25.03737 ] } },
{ "type": "Feature", "properties": { "index": 20, "Location": "臺北市市民大道", "Item": "闖紅燈、不依規定轉彎、不依標誌標線號誌指示行駛", "Dist": "中山、中正一", "Direction": "多向" }, "geometry": { "type": "Point", "coordinates": [ 121.530721359691938, 25.0459546563369 ] } },
{ "type": "Feature", "properties": { "index": 20, "Location": "臺北市林森北路", "Item": "闖紅燈、不依規定轉彎、不依標誌標線號誌指示行駛", "Dist": "中山、中正一", "Direction": "多向" }, "geometry": { "type": "Point", "coordinates": [ 121.525544105854209, 25.056543784516268 ] } },
{ "type": "Feature", "properties": { "index": 21, "Location": "臺北市和平東路", "Item": "闖紅燈、不停讓行人、不依規定轉彎、不依標誌標線號誌指示行駛", "Dist": "大安、信義", "Direction": "多向" }, "geometry": { "type": "Point", "coordinates": [ 121.569633664796044, 25.012457499294804 ] } },
{ "type": "Feature", "properties": { "index": 21, "Location": "臺北市基隆路", "Item": "闖紅燈、不停讓行人、不依規定轉彎、不依標誌標線號誌指示行駛", "Dist": "大安、信義", "Direction": "多向" }, "geometry": { "type": "Point", "coordinates": [ 121.562008040696625, 25.037650203811751 ] } },
{ "type": "Feature", "properties": { "index": 22, "Location": "臺北市信義路", "Item": "闖紅燈、不停讓行人、不依規定轉彎、不依標誌標線號誌指示行駛", "Dist": "大安", "Direction": "多向" }, "geometry": { "type": "Point", "coordinates": [ 121.524862833049184, 25.035296652267711 ] } },
{ "type": "Feature", "properties": { "index": 22, "Location": "臺北市建國南路", "Item": "闖紅燈、不停讓行人、不依規定轉彎、不依標誌標線號誌指示行駛", "Dist": "大安", "Direction": "多向" }, "geometry": { "type": "Point", "coordinates": [ 121.56355, 25.03737 ] } },
{ "type": "Feature", "properties": { "index": 23, "Location": "臺北市辛亥路", "Item": "闖紅燈、不停讓行人、不依規定轉彎、不依標誌標線號誌指示行駛、機車行駛人行道", "Dist": "大安", "Direction": "多向" }, "geometry": { "type": "Point", "coordinates": [ 121.537694992282297, 25.022565014670867 ] } },
{ "type": "Feature", "properties": { "index": 23, "Location": "臺北市基隆路", "Item": "闖紅燈、不停讓行人、不依規定轉彎、不依標誌標線號誌指示行駛、機車行駛人行道", "Dist": "大安", "Direction": "多向" }, "geometry": { "type": "Point", "coordinates": [ 121.562008040696625, 25.037650203811751 ] } },
{ "type": "Feature", "properties": { "index": 24, "Location": "臺北市市民大道", "Item": "闖紅燈、不停讓行人、不依規定轉彎", "Dist": "大安、松山", "Direction": "多向" }, "geometry": { "type": "Point", "coordinates": [ 121.530721359691938, 25.0459546563369 ] } },
{ "type": "Feature", "properties": { "index": 24, "Location": "臺北市敦化南路", "Item": "闖紅燈、不停讓行人、不依規定轉彎", "Dist": "大安、松山", "Direction": "多向" }, "geometry": { "type": "Point", "coordinates": [ 121.548009971877548, 25.040295069956741 ] } },
{ "type": "Feature", "properties": { "index": 25, "Location": "臺北市忠孝東路", "Item": "闖紅燈、不停讓行人、不依規定轉彎、不依標誌標線號誌指示行駛", "Dist": "信義", "Direction": "多向" }, "geometry": { "type": "Point", "coordinates": [ 121.573569912507537, 25.037055310541945 ] } },
{ "type": "Feature", "properties": { "index": 25, "Location": "臺北市基隆路", "Item": "闖紅燈、不停讓行人、不依規定轉彎、不依標誌標線號誌指示行駛", "Dist": "信義", "Direction": "多向" }, "geometry": { "type": "Point", "coordinates": [ 121.562008040696625, 25.037650203811751 ] } },
{ "type": "Feature", "properties": { "index": 26, "Location": "臺北市信義路", "Item": "闖紅燈、不停讓行人、不依規定轉彎、不依標誌標線號誌指示行駛", "Dist": "信義", "Direction": "多向" }, "geometry": { "type": "Point", "coordinates": [ 121.524862833049184, 25.035296652267711 ] } },
{ "type": "Feature", "properties": { "index": 26, "Location": "臺北市基隆路", "Item": "闖紅燈、不停讓行人、不依規定轉彎、不依標誌標線號誌指示行駛", "Dist": "信義", "Direction": "多向" }, "geometry": { "type": "Point", "coordinates": [ 121.562008040696625, 25.037650203811751 ] } },
{ "type": "Feature", "properties": { "index": 27, "Location": "臺北市中正路", "Item": "闖紅燈、不停讓行人、不依規定轉彎", "Dist": "士林", "Direction": "多向" }, "geometry": { "type": "Point", "coordinates": [ 121.517794865938882, 25.091976595939183 ] } },
{ "type": "Feature", "properties": { "index": 27, "Location": "臺北市延平北路", "Item": "闖紅燈、不停讓行人、不依規定轉彎", "Dist": "士林", "Direction": "多向" }, "geometry": { "type": "Point", "coordinates": [ 121.484053144339313, 25.103123673551373 ] } },
{ "type": "Feature", "properties": { "index": 28, "Location": "臺北市大度路", "Item": "闖紅燈、不依規定轉彎、不依標誌標線號誌指示行駛", "Dist": "北投", "Direction": "多向" }, "geometry": { "type": "Point", "coordinates": [ 121.486766172217571, 25.122010795505183 ] } },
{ "type": "Feature", "properties": { "index": 28, "Location": "臺北市立德路", "Item": "闖紅燈、不依規定轉彎、不依標誌標線號誌指示行駛", "Dist": "北投", "Direction": "多向" }, "geometry": { "type": "Point", "coordinates": [ 121.471781919212916, 25.126351269997027 ] } },
{ "type": "Feature", "properties": { "index": 29, "Location": "臺北市承德路", "Item": "闖紅燈、不依規定轉彎、不依標誌標線號誌指示行駛", "Dist": "北投", "Direction": "多向" }, "geometry": { "type": "Point", "coordinates": [ 121.486132100216295, 25.121771816323299 ] } },
{ "type": "Feature", "properties": { "index": 29, "Location": "臺北市福國路", "Item": "闖紅燈、不依規定轉彎、不依標誌標線號誌指示行駛", "Dist": "北投", "Direction": "多向" }, "geometry": { "type": "Point", "coordinates": [ 121.512972205451661, 25.101653659381917 ] } },
{ "type": "Feature", "properties": { "index": 30, "Location": "臺北市和平西路", "Item": "闖紅燈、不停讓行人、不依規定轉彎、不依標誌標線號誌指示行駛", "Dist": "萬華", "Direction": "多向" }, "geometry": { "type": "Point", "coordinates": [ 121.494126612551952, 25.03575092409498 ] } },
{ "type": "Feature", "properties": { "index": 30, "Location": "臺北市西園路", "Item": "闖紅燈、不停讓行人、不依規定轉彎、不依標誌標線號誌指示行駛", "Dist": "萬華", "Direction": "多向" }, "geometry": { "type": "Point", "coordinates": [ 121.56355, 25.03737 ] } },
{ "type": "Feature", "properties": { "index": 31, "Location": "臺北市辛亥路", "Item": "闖紅燈、不停讓行人、不依規定轉彎、不依標誌標線號誌指示行駛", "Dist": "文山一", "Direction": "多向" }, "geometry": { "type": "Point", "coordinates": [ 121.537694992282297, 25.022565014670867 ] } },
{ "type": "Feature", "properties": { "index": 31, "Location": "臺北市木柵路", "Item": "闖紅燈、不停讓行人、不依規定轉彎、不依標誌標線號誌指示行駛", "Dist": "文山一", "Direction": "多向" }, "geometry": { "type": "Point", "coordinates": [ 121.562184985523203, 24.991649999279367 ] } }
]
}
